<?xml version="1.0"?>
<gpx xmlns="http://www.topografix.com/GPX/1/1" xmlns:xsi="http://www.w3.org/2001/XMLSchema-instance" xsi:schemaLocation="http://www.topografix.com/GPX/1/1 http://www.topografix.com/GPX/1/1/gpx.xsd" >
<metadata>
<name>Shropshire - Churches v0021</name>
</metadata>
<wpt lat="52.4756733" lon="-2.6263022">
<name>Abdon - St Margaret</name>
<sym>blue plus</sym>
</wpt>
<wpt lat="52.6131608" lon="-2.6905863">
<name>Acton Burnell - St Mary</name>
<sym>green plus</sym>
</wpt>
<wpt lat="52.5573236" lon="-2.5404642">
<name>Acton Round - no known dedication</name>
<sym>blue plus</sym>
</wpt>
<wpt lat="52.4999278" lon="-2.8069053">
<name>Acton Scott - St Margaret</name>
<sym>green plus</sym>
</wpt>
<wpt lat="52.952094" lon="-2.506002">
<name>Adderley - St Peter</name>
<desc>-2.506002</desc>
<sym>yellow plus</sym>
</wpt>
<wpt lat="52.723647" lon="-2.951226">
<name>Alberbury - St Michael</name>
<desc>-2.951226</desc>
<sym>yellow plus ticked</sym>
</wpt>
<wpt lat="52.636913" lon="-2.283678">
<name>Albrighton (nr Shifnal) - St Mary Magdalene</name>
<sym>blue plus</sym>
</wpt>
<wpt lat="52.757068" lon="-2.745937">
<name>Albrighton (nr Shrewsbury) - St John the Baptist</name>
<sym>blue plus</sym>
</wpt>
<wpt lat="52.5575892" lon="-2.7952594">
<name>All Stretton - St Michael</name>
<sym>blue plus</sym>
</wpt>
<wpt lat="52.4582998" lon="-2.3550679">
<name>Alveley - St Mary the Virgin</name>
<sym>blue plus</sym>
</wpt>
<wpt lat="52.665974" lon="-2.807636">
<name>Annscroft - Christ Church</name>
<sym>blue plus</sym>
</wpt>
<wpt lat="52.95737" lon="-2.628569">
<name>Ash - Christ Church</name>
<sym>blue plus</sym>
</wpt>
<wpt lat="52.3307106" lon="-2.707051">
<name>Ashford Bowdler - St Andrew</name>
<desc>-2.707051</desc>
<sym>yellow plus ticked</sym>
</wpt>
<wpt lat="52.3347533" lon="-2.6980995">
<name>Ashford Carbonell - St Mary</name>
<desc>-2.6980995</desc>
<sym>yellow plus ticked</sym>
</wpt>
<wpt lat="52.563034" lon="-2.4314003">
<name>Astley Abbots - St Calixtus</name>
<sym>blue plus</sym>
</wpt>
<wpt lat="52.764801" lon="-2.698059">
<name>Astley - St Mary</name>
<desc>-2.698059</desc>
<sym>yellow plus</sym>
</wpt>
<wpt lat="52.4536296" lon="-2.5422881">
<name>Aston Botterell - St Michael</name>
<sym>blue plus</sym>
</wpt>
<wpt lat="52.5435278" lon="-2.5126449">
<name>Aston Eyre - no known dedication</name>
<desc>-2.5126449</desc>
<sym>yellow plus ticked</sym>
</wpt>
<wpt lat="52.678273" lon="-2.680824">
<name>Atcham - St Eata</name>
<sym>green plus</sym>
</wpt>
<wpt lat="52.593745" lon="-2.343803">
<name>Badger - St Giles</name>
<desc>-2.343803</desc>
<sym>yellow plus</sym>
</wpt>
<wpt lat="52.5966373" lon="-2.5067338">
<name>Barrow - St Giles</name>
<desc>-2.5067338</desc>
<sym>yellow plus ticked</sym>
</wpt>
<wpt lat="52.791342" lon="-2.857822">
<name>Baschurch - All Saints</name>
<sym>blue plus</sym>
</wpt>
<wpt lat="52.3315228" lon="-2.7434263">
<name>Batchcott Richard's Castle - All Saints</name>
<sym>blue plus</sym>
</wpt>
<wpt lat="52.750546" lon="-2.723256">
<name>Battlefield - St Mary Magdalene</name>
<sym>green plus</sym>
</wpt>
<wpt lat="52.61119" lon="-2.348028">
<name>Beckbury - St Milburga</name>
<sym>green plus</sym>
</wpt>
<wpt lat="52.3758295" lon="-2.9286652">
<name>Bedstone - St Mary</name>
<sym>blue plus</sym>
</wpt>
<wpt lat="52.6197777" lon="-2.5066316">
<name>Benthall - St Bartholomew</name>
<sym>blue plus</sym>
</wpt>
<wpt lat="52.657471" lon="-2.6961625">
<name>Berrington - All Saints</name>
<sym>blue plus</sym>
</wpt>
<wpt lat="52.680739" lon="-2.7268489">
<name>Betton Strange - St Margaret</name>
<sym>green plus</sym>
</wpt>
<wpt lat="52.4243749" lon="-3.1691957">
<name>Bettws-y-Crwyn - St Mary</name>
<sym>blue plus</sym>
</wpt>
<wpt lat="52.728578" lon="-2.818741">
<name>Bicton - Holy Trinity</name>
<sym>blue plus</sym>
</wpt>
<wpt lat="52.4654746" lon="-2.4367564">
<name>Billingsley - St Mary</name>
<desc>-2.4367564</desc>
<sym>yellow plus</sym>
</wpt>
<wpt lat="52.489506" lon="-2.9982786">
<name>Bishops Castle - St John the Baptist</name>
<desc>-2.9982786</desc>
<sym>yellow plus ticked</sym>
</wpt>
<wpt lat="52.391944" lon="-2.6323037">
<name>Bitterley - St Mary</name>
<sym>green plus</sym>
</wpt>
<wpt lat="52.620515" lon="-2.279509">
<name>Boningale - St Chad</name>
<sym>blue plus</sym>
</wpt>
<wpt lat="52.3271373" lon="-2.5685151">
<name>Boraston - no known dedication</name>
<sym>blue plus</sym>
</wpt>
<wpt lat="52.5633067" lon="-2.5953953">
<name>Bourton - Holy Trinity</name>
<sym>blue plus</sym>
</wpt>
<wpt lat="52.5370739" lon="-2.4184681">
<name>Bridgnorth - St Leonard</name>
<sym>green plus</sym>
</wpt>
<wpt lat="52.5324403" lon="-2.4186542">
<name>Bridgnorth - St Mary Magdalene</name>
<sym>green plus</sym>
</wpt>
<wpt lat="52.504078" lon="-2.6724941">
<name>Broadstone Chapel</name>
<sym>blue plus</sym>
</wpt>
<wpt lat="52.3868522" lon="-2.7631452">
<name>Bromfield - St Mary the Virgin</name>
<desc>-2.7631452</desc>
<sym>yellow plus ticked</sym>
</wpt>
<wpt lat="52.6102841" lon="-2.475728">
<name>Broseley - All Saints</name>
<desc>-2.475728</desc>
<sym>yellow plus</sym>
</wpt>
<wpt lat="52.806255" lon="-2.736591">
<name>Broughton - St Mary</name>
<sym>blue plus</sym>
</wpt>
<wpt lat="52.3591996" lon="-2.9489924">
<name>Bucknell - St Mary</name>
<desc>-2.9489924</desc>
<sym>yellow plus ticked</sym>
</wpt>
<wpt lat="52.6357788" lon="-2.5283924">
<name>Buildwas Abbey</name>
<sym>blue plus</sym>
</wpt>
<wpt lat="52.6391" lon="-2.53794">
<name>Buildwas - Holy Trinity</name>
<sym>green plus</sym>
</wpt>
<wpt lat="52.3118619" lon="-2.5965011">
<name>Burford - St Mary</name>
<sym>green plus</sym>
</wpt>
<wpt lat="52.931146" lon="-2.591578">
<name>Calverhall - Holy Trinity</name>
<sym>blue plus</sym>
</wpt>
<wpt lat="52.704897" lon="-2.895632">
<name>Cardeston - St Michael</name>
<desc>-2.895632</desc>
<sym>green plus</sym>
</wpt>
<wpt lat="52.5518349" lon="-2.7293274">
<name>Cardington - St James</name>
<sym>green plus</sym>
</wpt>
<wpt lat="52.3555789" lon="-2.6568041">
<name>Caynham - St Mary</name>
<desc>-2.6568041</desc>
<sym>yellow plus ticked</sym>
</wpt>
<wpt lat="52.3807874" lon="-3.0063079">
<name>Chapel Lawn - St Mary</name>
<sym>blue plus</sym>
</wpt>
<wpt lat="52.4874608" lon="-2.41285">
<name>Chelmarsh - St Peter</name>
<desc>-2.41285</desc>
<sym>green plus</sym>
</wpt>
<wpt lat="52.86604" lon="-2.418754">
<name>Cheswardine - St Swithin</name>
<desc>-2.418754</desc>
<sym>yellow plus</sym>
</wpt>
<wpt lat="52.5101453" lon="-2.4963221">
<name>Chetton - St Giles</name>
<desc>-2.4963221</desc>
<sym>yellow plus</sym>
</wpt>
<wpt lat="52.788461" lon="-2.394782">
<name>Chetwynd - St Michael and All Angels</name>
<sym>blue plus</sym>
</wpt>
<wpt lat="52.822144" lon="-2.497565">
<name>Child's Ercall - St Michael</name>
<sym>blue plus</sym>
</wpt>
<wpt lat="52.579319" lon="-3.091718">
<name>Chirbury - St Michael the Archangel</name>
<sym>green plus</sym>
</wpt>
<wpt lat="52.757442" lon="-2.381391">
<name>Church Aston - St Andrew</name>
<sym>blue plus</sym>
</wpt>
<wpt lat="52.5791735" lon="-2.6755039">
<name>Church Preen - St John the Baptist</name>
<desc>-2.6755039</desc>
<sym>yellow plus ticked</sym>
</wpt>
<wpt lat="52.5381436" lon="-2.8088214">
<name>Church Stretton - St Laurence</name>
<sym>green plus</sym>
</wpt>
<wpt lat="52.5382877" lon="-2.307144">
<name>Claverley - All Saints</name>
<desc>-2.307144</desc>
<sym>green plus</sym>
</wpt>
<wpt lat="52.4555674" lon="-2.64234">
<name>Clee St Margaret - St Margaret</name>
<desc>-2.64234</desc>
<sym>yellow plus ticked</sym>
</wpt>
<wpt lat="52.3743601" lon="-2.5993565">
<name>Cleehill - St Peter</name>
<sym>blue plus</sym>
</wpt>
<wpt lat="52.4045587" lon="-2.5738541">
<name>Cleeton St Mary - St Mary</name>
<sym>blue plus</sym>
</wpt>
<wpt lat="52.3793655" lon="-2.4800953">
<name>Cleobury Mortimer - St Mary</name>
<sym>green plus</sym>
</wpt>
<wpt lat="52.4796041" lon="-2.5559861">
<name>Cleobury North - St Peter and St Paul</name>
<sym>blue plus</sym>
</wpt>
<wpt lat="52.811281" lon="-2.721052">
<name>Clive - All Saints</name>
<desc>-2.721052</desc>
<sym>yellow plus</sym>
</wpt>
<wpt lat="52.4184834" lon="-3.0299669">
<name>Clun - St George</name>
<sym>blue plus</sym>
</wpt>
<wpt lat="52.4202225" lon="-2.9264019">
<name>Clunbury - St Swithin</name>
<sym>blue plus</sym>
</wpt>
<wpt lat="52.4030972" lon="-2.8909836">
<name>Clungunford - St Cuthbert</name>
<desc>-2.8909836</desc>
<sym>yellow plus</sym>
</wpt>
<wpt lat="52.4259696" lon="-2.9792881">
<name>Clunton - St Mary</name>
<sym>blue plus</sym>
</wpt>
<wpt lat="52.636913" lon="-2.488557">
<name>Coalbrookdale - Holy Trinity</name>
<desc>-2.488557</desc>
<sym>green plus</sym>
</wpt>
<wpt lat="52.857564" lon="-2.840729">
<name>Cockshutt - St Simon and St Jude</name>
<sym>green plus</sym>
</wpt>
<wpt lat="52.6473599" lon="-2.7484475">
<name>Condover - St Andrew and St Mary</name>
<sym>blue plus</sym>
</wpt>
<wpt lat="52.3627537" lon="-2.5694379">
<name>Coreley - St Peter</name>
<sym>blue plus</sym>
</wpt>
<wpt lat="52.6407322" lon="-2.6540129">
<name>Cound - St Peter</name>
<desc>-2.6540129</desc>
<sym>yellow plus ticked</sym>
</wpt>
<wpt lat="52.6320969" lon="-2.6038982">
<name>Cressage - Christ Church</name>
<sym>green plus</sym>
</wpt>
<wpt lat="52.923967" lon="-2.946369">
<name>Criftins (Dudleston Heath) - St Matthew</name>
<sym>blue plus</sym>
</wpt>
<wpt lat="52.759451" lon="-2.545752">
<name>Crudgington - St Mary</name>
<sym>green plus</sym>
</wpt>
<wpt lat="52.4329881" lon="-2.7461257">
<name>Culmington - All Saints</name>
<desc>-2.7461257</desc>
<sym>yellow plus ticked</sym>
</wpt>
<wpt lat="52.4929729" lon="-2.850908">
<name>Cwm Head - St Michael</name>
<sym>blue plus</sym>
</wpt>
<wpt lat="52.655136" lon="-2.464363">
<name>Dawley - Holy Trinity</name>
<sym>blue plus</sym>
</wpt>
<wpt lat="52.4638035" lon="-2.7248477">
<name>Diddlebury - St Peter</name>
<sym>green plus</sym>
</wpt>
<wpt lat="52.4989711" lon="-2.5781672">
<name>Ditton Priors - St John the Baptist</name>
<sym>blue plus</sym>
</wpt>
<wpt lat="52.3824923" lon="-2.565628">
<name>Doddington - St John the Baptist</name>
<desc>-2.565628</desc>
<sym>yellow plus</sym>
</wpt>
<wpt lat="52.640542" lon="-2.284792">
<name>Donington - St Cuthbert</name>
<sym>blue plus</sym>
</wpt>
<wpt lat="52.714498" lon="-2.430822">
<name>Donnington Wood - St Matthew</name>
<sym>blue plus</sym>
</wpt>
<wpt lat="52.6215382" lon="-2.7744592">
<name>Dorrington - St Edward</name>
<sym>blue plus</sym>
</wpt>
<wpt lat="52.93907" lon="-2.974284">
<name>Dudleston - St Mary</name>
<desc>-2.974284</desc>
<sym>yellow plus ticked</sym>
</wpt>
<wpt lat="52.5520518" lon="-2.6408479">
<name>Easthope - St Peter</name>
<desc>-2.6408479</desc>
<sym>yellow plus ticked</sym>
</wpt>
<wpt lat="52.652738" lon="-2.597051">
<name>Eaton Constantine - St Mary</name>
<sym>blue plus</sym>
</wpt>
<wpt lat="52.505405" lon="-2.7380433">
<name>Eaton-under-Heywood - St Edith</name>
<desc>-2.7380433</desc>
<sym>yellow plus ticked</sym>
</wpt>
<wpt lat="52.7705" lon="-2.416203">
<name>Edgmond - St Peter</name>
<desc>-2.416203</desc>
<sym>yellow plus</sym>
</wpt>
<wpt lat="52.466713" lon="-2.9027726">
<name>Edgton - St Michael</name>
<sym>blue plus</sym>
</wpt>
<wpt lat="52.883196" lon="-2.717863">
<name>Edstaston - St Mary</name>
<sym>blue plus</sym>
</wpt>
<wpt lat="52.907446" lon="-2.889431">
<name>Ellesmere - St Mary</name>
<sym>green plus</sym>
</wpt>
<wpt lat="52.729939" lon="-2.518334">
<name>Eyton-upon-the-Weald Moors - St Catherine</name>
<sym>green plus</sym>
</wpt>
<wpt lat="52.4222552" lon="-2.5315945">
<name>Farlow - St Giles</name>
<sym>blue plus</sym>
</wpt>
<wpt lat="52.890013" lon="-2.610864">
<name>Fauls - Holy Immanuel</name>
<sym>blue plus</sym>
</wpt>
<wpt lat="52.755183" lon="-2.818471">
<name>Fitz - St Peter and St Paul</name>
<sym>blue plus</sym>
</wpt>
<wpt lat="52.718929" lon="-2.871714">
<name>Ford - St Michael</name>
<desc>-2.871714</desc>
<sym>yellow plus</sym>
</wpt>
<wpt lat="52.6047999" lon="-2.7165555">
<name>Frodesley - St Mark</name>
<sym>blue plus</sym>
</wpt>
<wpt lat="52.4911112" lon="-2.4387989">
<name>Glazeley - St Bartholomew</name>
<desc>-2.4387989</desc>
<sym>yellow plus</sym>
</wpt>
<wpt lat="52.8985" lon="-3.040076">
<name>Gobowen - All Saints</name>
<sym>blue plus</sym>
</wpt>
<wpt lat="52.788455" lon="-2.524188">
<name>Great Bolas - St John the Baptist</name>
<sym>blue plus</sym>
</wpt>
<wpt lat="52.765235" lon="-2.893906">
<name>Great Ness - St Andrew</name>
<sym>blue plus</sym>
</wpt>
<wpt lat="52.704194" lon="-2.994322">
<name>Great Wollaston - St John</name>
<sym>blue plus</sym>
</wpt>
<wpt lat="52.3344129" lon="-2.6219134">
<name>Greete - St James</name>
<sym>blue plus</sym>
</wpt>
<wpt lat="52.80646" lon="-2.713087">
<name>Grinshill - All Saints</name>
<desc>-2.713087</desc>
<sym>yellow plus</sym>
</wpt>
<wpt lat="52.626579" lon="-2.889604">
<name>Habberley - St Mary</name>
<sym>blue plus</sym>
</wpt>
<wpt lat="52.704199" lon="-2.480245">
<name>Hadley - Holy Trinity</name>
<sym>blue plus</sym>
</wpt>
<wpt lat="52.775909" lon="-2.710108">
<name>Hadnall - St Mary Magdalene</name>
<desc>-2.710108</desc>
<sym>yellow plus ticked</sym>
</wpt>
<wpt lat="52.4449648" lon="-2.8306878">
<name>Halford - St Thomas</name>
<sym>green plus</sym>
</wpt>
<wpt lat="52.875051" lon="-2.983754">
<name>Halston Chapel</name>
<sym>blue plus</sym>
</wpt>
<wpt lat="52.681305" lon="-2.824371">
<name>Hanwood - St Thomas</name>
<sym>blue plus</sym>
</wpt>
<wpt lat="52.6094152" lon="-2.5975581">
<name>Harley - St Mary</name>
<desc>-2.5975581</desc>
<sym>yellow plus</sym>
</wpt>
<wpt lat="52.7317668" lon="-2.6801586">
<name>Haughmond Abbey</name>
<sym>blue plus</sym>
</wpt>
<wpt lat="52.836752" lon="-2.933114">
<name>Haughton - St Chad</name>
<sym>blue plus</sym>
</wpt>
<wpt lat="52.466716" lon="-2.6530065">
<name>Heath Chapel</name>
<sym>blue plus</sym>
</wpt>
<wpt lat="52.751985" lon="-2.602627">
<name>High Ercall - St Michael</name>
<sym>blue plus</sym>
</wpt>
<wpt lat="52.4473722" lon="-2.380944">
<name>Highley - St Mary</name>
<desc>-2.380944</desc>
<sym>yellow plus</sym>
</wpt>
<wpt lat="52.853563" lon="-2.576529">
<name>Hodnet - St Luke</name>
<desc>-2.576529</desc>
<sym>green plus</sym>
</wpt>
<wpt lat="52.5022501" lon="-2.6476209">
<name>Holdgate - Holy Trinity</name>
<desc>-2.6476209</desc>
<sym>yellow plus ticked</sym>
</wpt>
<wpt lat="52.3630225" lon="-2.6053266">
<name>Hope Bagot - St John the Baptist</name>
<desc>-2.6053266</desc>
<sym>green plus</sym>
</wpt>
<wpt lat="52.5276243" lon="-2.7742084">
<name>Hope Bowdler - St Andrew</name>
<desc>-2.7742084</desc>
<sym>green plus</sym>
</wpt>
<wpt lat="52.607201" lon="-2.974552">
<name>Hope - Holy Trinity</name>
<sym>blue plus</sym>
</wpt>
<wpt lat="52.4441455" lon="-2.8999707">
<name>Hopesay - St Mary</name>
<sym>yellow plus ticked</sym>
</wpt>
<wpt lat="52.398375" lon="-2.9370768">
<name>Hopton Castle - St Edward</name>
<sym>blue plus</sym>
</wpt>
<wpt lat="52.385651" lon="-2.534162">
<name>Hopton Wafers - St Michael</name>
<sym>blue plus</sym>
</wpt>
<wpt lat="52.871323" lon="-2.920719">
<name>Hordley - St Mary</name>
<sym>blue plus</sym>
</wpt>
<wpt lat="52.577434" lon="-2.6438171">
<name>Hughley - St John the Baptist</name>
<sym>blue plus</sym>
</wpt>
<wpt lat="52.943821" lon="-2.608006">
<name>Ightfield - St John the Baptist</name>
<sym>green plus</sym>
</wpt>
<wpt lat="52.628443" lon="-2.485192">
<name>Ironbridge - St Luke</name>
<desc>-2.485192</desc>
<sym>green plus</sym>
</wpt>
<wpt lat="52.623423" lon="-2.463178">
<name>Jackfield - St Mary</name>
<desc>-2.463178</desc>
<sym>yellow plus</sym>
</wpt>
<wpt lat="52.637565" lon="-2.401453">
<name>Kemberton - St Andrew and St John the Baptist</name>
<sym>blue plus</sym>
</wpt>
<wpt lat="52.6029458" lon="-2.6473249">
<name>Kenley - St John the Baptist</name>
<sym>blue plus</sym>
</wpt>
<wpt lat="52.691292" lon="-2.470707">
<name>Ketley - St Mary the Virgin</name>
<sym>blue plus</sym>
</wpt>
<wpt lat="52.4261292" lon="-2.4267962">
<name>KInlet - St John the Baptist</name>
<sym>blue plus</sym>
</wpt>
<wpt lat="52.781977" lon="-2.982537">
<name>Kinnerley - St Mary</name>
<sym>green plus</sym>
</wpt>
<wpt lat="52.794374" lon="-2.989193">
<name>Knockin - St Mary</name>
<sym>blue plus</sym>
</wpt>
<wpt lat="52.3736391" lon="-2.630441">
<name>Knowbury - St Paul</name>
<desc>-2.630441</desc>
<sym>green plus</sym>
</wpt>
<wpt lat="52.746839" lon="-2.486226">
<name>Kynnersley - St Chad</name>
<sym>blue plus</sym>
</wpt>
<wpt lat="52.5967186" lon="-2.6830507">
<name>Langley Chapel</name>
<desc>-2.6830507</desc>
<sym>yellow plus ticked</sym>
</wpt>
<wpt lat="52.674981" lon="-2.494032">
<name>Lawley - St John the Evangelist</name>
<sym>blue plus</sym>
</wpt>
<wpt lat="52.668695" lon="-2.853746">
<name>Lea Cross - St Anne</name>
<sym>blue plus</sym>
</wpt>
<wpt lat="52.759885" lon="-2.787406">
<name>Leaton - Holy Trinity</name>
<sym>blue plus</sym>
</wpt>
<wpt lat="52.840282" lon="-2.675641">
<name>Lee Brockhurst - St Peter</name>
<sym>blue plus</sym>
</wpt>
<wpt lat="52.5831367" lon="-2.7824245">
<name>Leebotwood - St Mary</name>
<sym>blue plus</sym>
</wpt>
<wpt lat="52.642384" lon="-2.573705">
<name>Leighton - St Mary</name>
<sym>blue plus</sym>
</wpt>
<wpt lat="52.7258435" lon="-2.3901613">
<name>Lilleshall Abbey</name>
<sym>blue plus</sym>
</wpt>
<wpt lat="52.734011" lon="-2.403793">
<name>Lilleshall - St Michael and All Angels</name>
<desc>-2.403793</desc>
<sym>yellow plus</sym>
</wpt>
<wpt lat="52.5830174" lon="-2.4654541">
<name>Linley - St Leonard</name>
<sym>blue plus</sym>
</wpt>
<wpt lat="52.72847" lon="-2.781387">
<name>Little Berwick Chapel</name>
<sym>blue plus</sym>
</wpt>
<wpt lat="52.89876" lon="-2.501663">
<name>Little Drayton - Christ Church</name>
<sym>blue plus</sym>
</wpt>
<wpt lat="52.773295" lon="-2.879681">
<name>Little Ness - St Martin</name>
<sym>blue plus</sym>
</wpt>
<wpt lat="52.5219647" lon="-2.8214309">
<name>Little Stretton - All Saints</name>
<sym>green plus</sym>
</wpt>
<wpt lat="52.658036" lon="-2.523336">
<name>Little Wenlock - St Lawrence</name>
<sym>blue plus</sym>
</wpt>
<wpt lat="52.3794117" lon="-3.1175796">
<name>Llanfair Waterdine - St Mary</name>
<sym>blue plus</sym>
</wpt>
<wpt lat="52.79807" lon="-3.12966">
<name>Llanyblodwel - St Michael the Archangel</name>
<desc>-3.12966</desc>
<sym>green plus</sym>
</wpt>
<wpt lat="52.779643" lon="-3.087527">
<name>Llanymynech - St Agatha</name>
<sym>blue plus</sym>
</wpt>
<wpt lat="52.652117" lon="-2.827226">
<name>Longden - St Ruthen</name>
<sym>green plus</sym>
</wpt>
<wpt lat="52.762513" lon="-2.407754">
<name>Longford - Talbot Chapel</name>
<sym>blue plus</sym>
</wpt>
<wpt lat="52.5996499" lon="-2.7567726">
<name>Longnor - St Mary</name>
<desc>-2.7567726</desc>
<sym>yellow plus ticked</sym>
</wpt>
<wpt lat="52.73538" lon="-2.560089">
<name>Longdon on Tern - St Bartholomew</name>
<sym>green plus</sym>
</wpt>
<wpt lat="52.858178" lon="-2.785918">
<name>Loppington - St Michael and All Angels</name>
<sym>blue plus</sym>
</wpt>
<wpt lat="52.4437571" lon="-2.5670413">
<name>Loughton Chapel</name>
<sym>blue plus</sym>
</wpt>
<wpt lat="52.3628829" lon="-2.7169081">
<name>Ludford - St Giles</name>
<desc>-2.7169081</desc>
<sym>yellow plus ticked</sym>
</wpt>
<wpt lat="52.3720586" lon="-2.7130087">
<name>Ludlow - St John</name>
<sym>green plus</sym>
</wpt>
<wpt lat="52.3681928" lon="-2.7188953">
<name>Ludlow - St Laurence</name>
<sym>green plus</sym>
</wpt>
<wpt lat="52.468245" lon="-2.9549876">
<name>Lydbury North - St Michael and All Angels</name>
<sym>blue plus</sym>
</wpt>
<wpt lat="52.5132663" lon="-2.9803196">
<name>Lydham - Holy Trinity</name>
<sym>green plus</sym>
</wpt>
<wpt lat="52.890611" lon="-2.837364">
<name>Lyneal (Colmere) - St John the Evangelist</name>
<sym>blue plus</sym>
</wpt>
<wpt lat="52.633927" lon="-2.450776">
<name>Madeley - St Michael</name>
<sym>blue plus</sym>
</wpt>
<wpt lat="52.784191" lon="-3.036704">
<name>Maesbrook - St John</name>
<sym>blue plus</sym>
</wpt>
<wpt lat="52.823628" lon="-3.025525">
<name>Maesbury - St John the Baptist</name>
<sym>blue plus</sym>
</wpt>
<wpt lat="52.4790761" lon="-3.0837841">
<name>Mainstone - St John the Baptist</name>
<sym>blue plus</sym>
</wpt>
<wpt lat="52.669802" lon="-2.461357">
<name>Malinslee - St Leonard</name>
<sym>blue plus</sym>
</wpt>
<wpt lat="52.903044" lon="-2.482823">
<name>Market Drayton - St Mary</name>
<desc>-2.482823</desc>
<sym>yellow plus</sym>
</wpt>
<wpt lat="52.616462" lon="-3.051873">
<name>Marton - St Mark</name>
<sym>blue plus</sym>
</wpt>
<wpt lat="52.742447" lon="-2.990081">
<name>Melverley - St Peter</name>
<desc>-2.990081</desc>
<sym>green plus</sym>
</wpt>
<wpt lat="52.690278" lon="-2.762098">
<name>Meole Brace - Holy Trinity</name>
<sym>blue plus</sym>
</wpt>
<wpt lat="52.3920981" lon="-2.6772501">
<name>Middleton Chapel</name>
<sym>blue plus</sym>
</wpt>
<wpt lat="52.587201" lon="-3.038361">
<name>Middleton-in-Chirbury - Holy Trinity</name>
<sym>blue plus</sym>
</wpt>
<wpt lat="52.4848882" lon="-2.4707581">
<name>Middleton Scriven - St John the Baptist</name>
<sym>blue plus</sym>
</wpt>
<wpt lat="52.3522005" lon="-2.5303724">
<name>Milson - St George</name>
<sym>blue plus</sym>
</wpt>
<wpt lat="52.639655" lon="-2.926834">
<name>Minsterley - Holy Trinity</name>
<sym>blue plus</sym>
</wpt>
<wpt lat="52.5374001" lon="-2.5539481">
<name>Monkhopton - St Peter</name>
<sym>blue plus</sym>
</wpt>
<wpt lat="52.727253" lon="-2.86217">
<name>Montford - St Chad</name>
<sym>blue plus</sym>
</wpt>
<wpt lat="52.5174748" lon="-2.9697071">
<name>More - St Peter</name>
<desc>-2.9697071</desc>
<sym>yellow plus ticked</sym>
</wpt>
<wpt lat="52.804563" lon="-2.652172">
<name>Moreton Corbet - St Bartholomew</name>
<desc>-2.652172</desc>
<sym>green plus</sym>
</wpt>
<wpt lat="52.906404" lon="-2.551157">
<name>Moreton Say - St Margaret</name>
<desc>-2.551157</desc>
<sym>yellow plus</sym>
</wpt>
<wpt lat="52.814378" lon="-3.053518">
<name>Morton - St Philip and St James</name>
<sym>blue plus</sym>
</wpt>
<wpt lat="52.5418817" lon="-2.488297">
<name>Morville - St Gregory</name>
<sym>green plus</sym>
</wpt>
<wpt lat="52.5963765" lon="-2.5570935">
<name>Much Wenlock - Holy Trinity</name>
<desc>-2.5570935</desc>
<sym>green plus</sym>
</wpt>
<wpt lat="52.4853029" lon="-2.7066205">
<name>Munslow - St Michael</name>
<desc>-2.7066205</desc>
<sym>green plus</sym>
</wpt>
<wpt lat="52.807089" lon="-2.791152">
<name>Myddle - St Peter</name>
<sym>blue plus</sym>
</wpt>
<wpt lat="52.5001625" lon="-2.8996328">
<name>Myndtown - St John the Baptist</name>
<sym>green plus</sym>
</wpt>
<wpt lat="52.341852" lon="-2.5824267">
<name>Nash - St John the Baptist</name>
<sym>blue plus</sym>
</wpt>
<wpt lat="52.392731" lon="-2.4800825">
<name>Neen Savage - St Mary</name>
<sym>blue plus</sym>
</wpt>
<wpt lat="52.34748" lon="-2.5003221">
<name>Neen Sollars - All Saints</name>
<sym>blue plus</sym>
</wpt>
<wpt lat="52.4862283" lon="-2.5355745">
<name>Neenton - All Saints</name>
<sym>blue plus</sym>
</wpt>
<wpt lat="52.436362" lon="-3.0998672">
<name>Newcastle on Clun - St John the Evangelist</name>
<sym>blue plus</sym>
</wpt>
<wpt lat="52.769612" lon="-2.379189">
<name>Newport - St Nicholas</name>
<sym>green plus</sym>
</wpt>
<wpt lat="52.879569" lon="-2.77671">
<name>Newtown - King Charles the Martyr</name>
<sym>blue plus</sym>
</wpt>
<wpt lat="52.5296614" lon="-2.9388854">
<name>Norbury - All Saints</name>
<desc>-2.9388854</desc>
<sym>yellow plus ticked</sym>
</wpt>
<wpt lat="52.944654" lon="-2.442404">
<name>Norton-in-Hales - St Chad</name>
<sym>blue plus</sym>
</wpt>
<wpt lat="52.692444" lon="-2.456186">
<name>Oakengates - Holy Trinity</name>
<sym>blue plus</sym>
</wpt>
<wpt lat="52.5254162" lon="-2.4281759">
<name>Oldbury - St Nicholas</name>
<desc>-2.4281759</desc>
<sym>yellow plus</sym>
</wpt>
<wpt lat="52.4076856" lon="-2.8013286">
<name>Onibury - St Michael</name>
<desc>-2.8013286</desc>
<sym>yellow plus ticked</sym>
</wpt>
<wpt lat="52.857445" lon="-3.051948">
<name>Oswestry - Holy Trinity</name>
<sym>blue plus</sym>
</wpt>
<wpt lat="52.857086" lon="-3.05787">
<name>Oswestry - St Oswald</name>
<desc>-3.05787</desc>
<sym>green plus</sym>
</wpt>
<wpt lat="52.819107" lon="-2.540305">
<name>Peplow - Chapel of the Epiphany</name>
<sym>blue plus</sym>
</wpt>
<wpt lat="52.830639" lon="-2.831704">
<name>Petton Church</name>
<desc>-2.831704</desc>
<sym>green plus</sym>
</wpt>
<wpt lat="52.634266" lon="-2.6991607">
<name>Pitchford - St Michael and All Angels</name>
<sym>green plus</sym>
</wpt>
<wpt lat="52.649186" lon="-2.888497">
<name>Pontesbury - St George</name>
<desc>-2.888497</desc>
<sym>yellow plus</sym>
</wpt>
<wpt lat="52.816987" lon="-2.945746">
<name>Pradoe Church</name>
<sym>blue plus</sym>
</wpt>
<wpt lat="52.896917" lon="-2.66012">
<name>Prees - St Chad</name>
<sym>green plus</sym>
</wpt>
<wpt lat="52.771782" lon="-2.754562">
<name>Preston Gubbals - St Martin</name>
<sym>blue plus</sym>
</wpt>
<wpt lat="52.734903" lon="-2.473809">
<name>Preston-upon-the-Weald Moors - St Laurence</name>
<desc>-2.473809</desc>
<sym>green plus</sym>
</wpt>
<wpt lat="52.686928" lon="-2.440471">
<name>Prioslee - St Peter</name>
<sym>blue plus</sym>
</wpt>
<wpt lat="52.6208833" lon="-2.8434772">
<name>Church Pulverbatch - St Edith</name>
<desc>-2.8434772</desc>
<sym>green plus</sym>
</wpt>
<wpt lat="52.5136167" lon="-2.3861482">
<name>Quatford - St Mary Magdalene</name>
<desc>-2.3861482</desc>
<sym>yellow plus</sym>
</wpt>
<wpt lat="52.4910516" lon="-2.3603105">
<name>Quatt - St Andrew</name>
<sym>blue plus</sym>
</wpt>
<wpt lat="52.5663656" lon="-2.8825878">
<name>Ratlinghope - St Margaret</name>
<desc>-2.8825878</desc>
<sym>green plus</sym>
</wpt>
<wpt lat="52.725499" lon="-2.609112">
<name>Rodington - St George</name>
<sym>blue plus</sym>
</wpt>
<wpt lat="52.774821" lon="-2.570957">
<name>Rowton - All Hallows</name>
<sym>blue plus</sym>
</wpt>
<wpt lat="52.5222384" lon="-2.7182528">
<name>Rushbury - St Peter</name>
<desc>-2.7182528</desc>
<sym>yellow plus</sym>
</wpt>
<wpt lat="52.793588" lon="-2.898442">
<name>Ruyton XI Towns - St John the Baptist</name>
<sym>blue plus</sym>
</wpt>
<wpt lat="52.62208" lon="-2.355601">
<name>Ryton - St Andrew</name>
<sym>blue plus</sym>
</wpt>
<wpt lat="52.6273431" lon="-2.7570478">
<name>Ryton - St Thomas</name>
<sym>blue plus</sym>
</wpt>
<wpt lat="52.81692" lon="-2.42498">
<name>Sambrook - St Luke</name>
<sym>blue plus</sym>
</wpt>
<wpt lat="52.89871" lon="-3.09176">
<name>Selattyn - St Mary</name>
<desc>-3.09176</desc>
<sym>green plus</sym>
</wpt>
<wpt lat="52.785881" lon="-2.654848">
<name>Shawbury - St Mary</name>
<desc>-2.654848</desc>
<sym>yellow plus</sym>
</wpt>
<wpt lat="52.6320988" lon="-2.5766848">
<name>Sheinton - St Peter and St Paul</name>
<sym>blue plus</sym>
</wpt>
<wpt lat="52.713882" lon="-2.802446">
<name>Shelton and Oxon - Christ Church</name>
<sym>blue plus</sym>
</wpt>
<wpt lat="52.584954" lon="-2.980849">
<name>Shelve - All Saints</name>
<sym>green plus</sym>
</wpt>
<wpt lat="52.705391" lon="-2.359557">
<name>Sheriffhales - St Mary</name>
<sym>blue plus</sym>
</wpt>
<wpt lat="52.664436" lon="-2.375878">
<name>Shifnal - St Andrew</name>
<sym>blue plus</sym>
</wpt>
<wpt lat="52.522801" lon="-2.6473258">
<name>Shipton - St James</name>
<desc>-2.6473258</desc>
<sym>green plus</sym>
</wpt>
<wpt lat="52.731758" lon="-2.891159">
<name>Shrawardine - St Mary the Virgin</name>
<sym>blue plus</sym>
</wpt>
<wpt lat="52.707631" lon="-2.743748">
<name>Shrewsbury Abbey</name>
<sym>blue plus</sym>
</wpt>
<wpt lat="52.714049" lon="-2.743343">
<name>Shrewsbury - All Saints</name>
<sym>blue plus</sym>
</wpt>
<wpt lat="52.702759" lon="-2.746418">
<name>Shrewsbury - Holy Trinity</name>
<sym>blue plus</sym>
</wpt>
<wpt lat="52.707634" lon="-2.752407">
<name>Shrewsbury - St Alkmund</name>
<sym>green plus</sym>
</wpt>
<wpt lat="52.707226" lon="-2.758925">
<name>Shrewsbury - St Chad (new)</name>
<sym>green plus</sym>
</wpt>
<wpt lat="52.706325" lon="-2.753175">
<name>Shrewsbury - St Chad (old)</name>
<sym>green plus</sym>
</wpt>
<wpt lat="52.712517" lon="-2.759858">
<name>Shrewsbury - St George</name>
<sym>blue plus</sym>
</wpt>
<wpt lat="52.702063" lon="-2.730551">
<name>Shrewsbury - St Giles</name>
<sym>blue plus</sym>
</wpt>
<wpt lat="52.689596" lon="-2.737378">
<name>Shrewsbury - St John</name>
<sym>blue plus</sym>
</wpt>
<wpt lat="52.707198" lon="-2.75209">
<name>Shrewsbury - St Julian</name>
<sym>green plus</sym>
</wpt>
<wpt lat="52.708679" lon="-2.751438">
<name>Shrewsbury - St Mary the Virgin</name>
<sym>green plus</sym>
</wpt>
<wpt lat="52.717978" lon="-2.746106">
<name>Shrewsbury - St Michael</name>
<sym>blue plus</sym>
</wpt>
<wpt lat="52.4429031" lon="-2.8652658">
<name>Sibdon Carwood - St Michael</name>
<sym>blue plus</sym>
</wpt>
<wpt lat="52.4687698" lon="-2.4669627">
<name>Sidbury - Holy Trinity</name>
<sym>blue plus</sym>
</wpt>
<wpt lat="52.4153403" lon="-2.5584315">
<name>Silvington - St Michael</name>
<sym>blue plus</sym>
</wpt>
<wpt lat="52.5892916" lon="-2.8139247">
<name>Smethcott - St Michael</name>
<sym>green plus</sym>
</wpt>
<wpt lat="52.6162" lon="-2.9288">
<name>Snailbeach - St Luke</name>
<sym>green plus</sym>
</wpt>
<wpt lat="52.695231" lon="-2.431622">
<name>St Georges - St George</name>
<sym>blue plus</sym>
</wpt>
<wpt lat="52.919594" lon="-3.009059">
<name>St Martin's - St Martin</name>
<sym>blue plus</sym>
</wpt>
<wpt lat="52.4049351" lon="-2.7429142">
<name>Stanton Lacy - St Peter</name>
<desc>-2.7429142</desc>
<sym>yellow plus</sym>
</wpt>
<wpt lat="52.5125742" lon="-2.632573">
<name>Stanton Long - St Michael</name>
<sym>blue plus</sym>
</wpt>
<wpt lat="52.809597" lon="-2.642468">
<name>Stanton-upon-Hine Heath - St Andrew</name>
<sym>blue plus</sym>
</wpt>
<wpt lat="52.6352345" lon="-2.7835338">
<name>Stapleton - St John the Baptist</name>
<desc>-2.7835338</desc>
<sym>green plus</sym>
</wpt>
<wpt lat="52.657369" lon="-2.445186">
<name>Stirchley - St James</name>
<sym>blue plus</sym>
</wpt>
<wpt lat="52.593277" lon="-2.401416">
<name>Stockton - St Chad</name>
<sym>blue plus</sym>
</wpt>
<wpt lat="52.847942" lon="-2.538214">
<name>Stoke on Tern - St Peter</name>
<sym>green plus</sym>
</wpt>
<wpt lat="52.4370391" lon="-2.6396463">
<name>Stoke St Milborough - St Milburgh</name>
<desc>-2.6396463</desc>
<link href=""/>
<sym>yellow plus ticked</sym>
</wpt>
<wpt lat="52.4306903" lon="-2.8312146">
<name>Stokesay - St John the Baptist</name>
<desc>-2.8312146</desc>
<sym>green plus</sym>
</wpt>
<wpt lat="52.4429401" lon="-2.4832932">
<name>Stottesdon - St Mary</name>
<desc>-2.4832932</desc>
<sym>yellow plus ticked</sym>
</wpt>
<wpt lat="52.3569249" lon="-3.0144087">
<name>Stowe - St Michael</name>
<sym>blue plus</sym>
</wpt>
<wpt lat="52.609249" lon="-2.416851">
<name>Sutton Maddock - St Mary</name>
<sym>blue plus</sym>
</wpt>
<wpt lat="52.5440146" lon="-2.4488609">
<name>Tasley - St Peter and St Paul</name>
<sym>blue plus</sym>
</wpt>
<wpt lat="52.780075" lon="-2.473951">
<name>Tibberton - All Saints</name>
<sym>blue plus</sym>
</wpt>
<wpt lat="52.936166" lon="-2.68205">
<name>Tilstock - Christ Church</name>
<sym>blue plus</sym>
</wpt>
<wpt lat="52.663848" lon="-2.303431">
<name>Tong - St Mary and St Bartholomew</name>
<desc>-2.303431</desc>
<sym>green plus</sym>
</wpt>
<wpt lat="52.834521" lon="-3.097799">
<name>Trefonen - All Saints</name>
<sym>blue plus</sym>
</wpt>
<wpt lat="52.4900232" lon="-2.3141215">
<name>Tuckhill - Holy Innocents</name>
<sym>blue plus</sym>
</wpt>
<wpt lat="52.4795517" lon="-2.6538957">
<name>Tugford - St Catherine</name>
<desc>-2.6538957</desc>
<sym>yellow plus</sym>
</wpt>
<wpt lat="52.720393" lon="-2.700385">
<name>Uffington - Holy Trinity</name>
<sym>blue plus</sym>
</wpt>
<wpt lat="52.680474" lon="-2.596889">
<name>Uppington - Holy Trinity</name>
<desc>-2.596889</desc>
<sym>yellow plus ticked</sym>
</wpt>
<wpt lat="52.5287398" lon="-2.5081357">
<name>Upton Cressett - St Michael</name>
<sym>green plus</sym>
</wpt>
<wpt lat="52.707813" lon="-2.662582">
<name>Upton Magna - St Lucy</name>
<sym>green plus</sym>
</wpt>
<wpt lat="52.771235" lon="-2.54394">
<name>Waters Upton - St Michael</name>
<sym>blue plus</sym>
</wpt>
<wpt lat="52.702037" lon="-2.517821">
<name>Wellington - All Saints</name>
<sym>green plus</sym>
</wpt>
<wpt lat="52.697315" lon="-2.510763">
<name>Wellington - Christ Church</name>
<sym>blue plus</sym>
</wpt>
<wpt lat="52.892192" lon="-2.946689">
<name>Welsh Frankton - St Andrew</name>
<desc>-2.946689</desc>
<sym>yellow plus</sym>
</wpt>
<wpt lat="52.908634" lon="-2.843266">
<name>Welshampton - St Michael and All Angels</name>
<sym>green plus</sym>
</wpt>
<wpt lat="52.855051" lon="-2.72573">
<name>Wem - St Peter and St Paul</name>
<sym>green plus</sym>
</wpt>
<wpt lat="52.5975986" lon="-2.5551374">
<name>Wenlock Priory</name>
<sym>blue plus</sym>
</wpt>
<wpt lat="52.5282128" lon="-2.9099275">
<name>Wentnor - St Michael and All Angels</name>
<desc>-2.9099275</desc>
<sym>yellow plus ticked</sym>
</wpt>
<wpt lat="52.820512" lon="-2.979016">
<name>West Felton - St Michael</name>
<sym>blue plus</sym>
</wpt>
<wpt lat="52.678672" lon="-2.954623">
<name>Westbury - St Mary</name>
<sym>blue plus</sym>
</wpt>
<wpt lat="52.913458" lon="-3.066282">
<name>Westin Rhyn - St John the Divine</name>
<sym>blue plus</sym>
</wpt>
<wpt lat="52.825131" lon="-2.854051">
<name>Weston Lullingfields - Holy Trinity</name>
<sym>blue plus</sym>
</wpt>
<wpt lat="52.854834" lon="-2.64746">
<name>Weston-under-Redcastle - St Luke</name>
<sym>blue plus</sym>
</wpt>
<wpt lat="52.4363985" lon="-2.5576105">
<name>Wheathill - Holy Trinity</name>
<sym>blue plus</sym>
</wpt>
<wpt lat="52.970688" lon="-2.684795">
<name>Whitchurch - St Alkmund</name>
<desc>-2.684795</desc>
<sym>green plus</sym>
</wpt>
<wpt lat="52.874683" lon="-3.002848">
<name>Whittington - St John the Baptist</name>
<sym>green plus</sym>
</wpt>
<wpt lat="52.3518518" lon="-2.6240071">
<name>Whitton - St Mary</name>
<sym>blue plus</sym>
</wpt>
<wpt lat="52.908695" lon="-2.718537">
<name>Whixall - St Mary</name>
<sym>blue plus</sym>
</wpt>
<wpt lat="52.5895517" lon="-2.4855079">
<name>Willey - St John the Baptist</name>
<sym>blue plus</sym>
</wpt>
<wpt lat="52.4656772" lon="-2.8368155">
<name>Winstanstow - Holy Trinity</name>
<sym>blue plus</sym>
</wpt>
<wpt lat="52.712569" lon="-2.627783">
<name>Withington - St John the Baptist</name>
<sym>blue plus</sym>
</wpt>
<wpt lat="52.701576" lon="-2.458477">
<name>Wombridge - St Mary and St Leonard</name>
<sym>blue plus</sym>
</wpt>
<wpt lat="52.5813354" lon="-2.8094473">
<name>Woolstaston - St Michael</name>
<desc>-2.8094473</desc>
<sym>yellow plus</sym>
</wpt>
<wpt lat="52.978021" lon="-2.402499">
<name>Woore - St Leonard</name>
<sym>blue plus</sym>
</wpt>
<wpt lat="52.5592616" lon="-2.3584739">
<name>Worfield - St Peter</name>
<desc>-2.3584739</desc>
<sym>yellow plus ticked</sym>
</wpt>
<wpt lat="52.635802" lon="-2.99364">
<name>Worthen - All Saints</name>
<sym>blue plus</sym>
</wpt>
<wpt lat="52.70495" lon="-2.556732">
<name>Wrockwardine - St Peter</name>
<sym>green plus</sym>
</wpt>
<wpt lat="52.710542" lon="-2.446342">
<name>Wrockwardine Wood - Holy Trinity</name>
<sym>blue plus</sym>
</wpt>
<wpt lat="52.669774" lon="-2.647319">
<name>Wroxeter - St Andrew</name>
<sym>green plus</sym>
</wpt>
<wpt lat="52.684993" lon="-2.896093">
<name>Yockleton - Holy Trinity</name>
<sym>green plus</sym>
</wpt>
</gpx>
